[
  {
    "name":"",
    "engine":"E1",
    "truck":"AT1",
    "ambo":"A41",
    "squad":"",
    "special":"",
    "batt":"1",
    "fireDist":"1",
    "emsDist":"1",
    "addr":"419 S WELLS ST",
    "city":"Chicago",
    "state":"IL",
    "zip":60607,
    "latitude":41.8760480434,
    "longitude":-87.6333369232,
    "radio":"Main"
  },
  {
    "name":"FIREBOAT",
    "engine":"E2",
    "truck":"",
    "ambo":"",
    "squad":"",
    "special":"5-2-1/5-1-5",
    "batt":"1",
    "fireDist":"1",
    "emsDist":"1",
    "addr":"250 N BREAKWATER ACCESS",
    "city":"Chicago",
    "state":"IL",
    "zip":60601,
    "latitude":41.887614,
    "longitude":-87.610789,
    "radio":"Main"
  },
  {
    "name":"",
    "engine":"E4",
    "truck":"TL10",
    "ambo":"",
    "squad":"",
    "special":"5-6-1/6-2-4",
    "batt":"3",
    "fireDist":"1",
    "emsDist":"1",
    "addr":"548 W DIVISION ST",
    "city":"Chicago",
    "state":"IL",
    "zip":60610,
    "latitude":41.9039899789,
    "longitude":-87.6429147028,
    "radio":"Main"
  },
  {
    "name":"",
    "engine":"E5",
    "truck":"T2",
    "ambo":"A28",
    "squad":"",
    "special":"5-2-1/5-1-5",
    "batt":"4",
    "fireDist":"1",
    "emsDist":"1",
    "addr":"324 S DESPLAINES ST",
    "city":"Chicago",
    "state":"IL",
    "zip":60661,
    "latitude":41.8770283044,
    "longitude":-87.6443086519,
    "radio":"Main"
  },
  {
    "name":"",
    "engine":"E7",
    "truck":"T58",
    "ambo":"A7",
    "squad":"",
    "special":"",
    "batt":"7",
    "fireDist":"2",
    "emsDist":"3",
    "addr":"4911 W BELMONT AVE",
    "city":"Chicago",
    "state":"IL",
    "zip":60641,
    "latitude":41.9387854994,
    "longitude":-87.7496376483,
    "radio":"Main"
  },
  {
    "name":"",
    "engine":"E8",
    "truck":"T4",
    "ambo":"A66",
    "squad":"",
    "special":"",
    "batt":"2 (HQ)",
    "fireDist":"1",
    "emsDist":"7",
    "addr":"212 W CERMAK RD",
    "city":"Chicago",
    "state":"IL",
    "zip":60616,
    "latitude":41.8531333181,
    "longitude":-87.6323566622,
    "radio":"Englewood"
  },
  {
    "name":"O'HARE RESCUE 3",
    "engine":"E9",
    "truck":"",
    "ambo":"A59",
    "squad":"SQ7 SQ7A",
    "special":"R3/2-2-3/5-7-3/8-8-1A/9-2-4",
    "batt":"13",
    "fireDist":"3 (HQ)",
    "emsDist":"3",
    "addr":"",
    "city":"Chicago",
    "state":"IL",
    "zip":60666,
    "latitude":41.980664,
    "longitude":-87.898249,
    "radio":"Main"
  },
  {
    "name":"O'HARE RESCUE 2",
    "engine":"E10",
    "truck":"",
    "ambo":"A16",
    "squad":"",
    "special":"R2/6-3-5/6-5-4/6-5-5/6-5-6",
    "batt":"13",
    "fireDist":"3",
    "emsDist":"3",
    "addr":"",
    "city":"Chicago",
    "state":"IL",
    "zip":60666,
    "latitude":41.987888,
    "longitude":-87.915926,
    "radio":"Main"
  },
  {
    "name":"",
    "engine":"E11",
    "truck":"T9",
    "ambo":"A2",
    "squad":"",
    "special":"",
    "batt":"11",
    "fireDist":"2",
    "emsDist":"3",
    "addr":"5343 N CUMBERLAND AVE",
    "city":"Chicago",
    "state":"IL",
    "zip":60656,
    "latitude":41.9768562535,
    "longitude":-87.8364958863,
    "radio":"Main"
  },
  {
    "name":"O'HARE RESCUE 1",
    "engine":"E12",
    "truck":"TL63",
    "ambo":"A26",
    "squad":"",
    "special":"R1/2-7-8/5-1-2/5-3-1/6-5-3/6-5-7/6-5-8/6-5-10/8-8-1",
    "batt":"13",
    "fireDist":"3",
    "emsDist":"3",
    "addr":"",
    "city":"Chicago",
    "state":"IL",
    "zip":60666,
    "latitude":41.963904,
    "longitude":-87.907809,
    "radio":"Main"
  },
  {
    "name":"",
    "engine":"E13",
    "truck":"T6",
    "ambo":"A74",
    "squad":"",
    "special":"4-5-1/6-8-7",
    "batt":"1 (HQ)",
    "fireDist":"1",
    "emsDist":"1",
    "addr":"259 N COLUMBUS DR",
    "city":"Chicago",
    "state":"IL",
    "zip":60601,
    "latitude":41.8864636056,
    "longitude":-87.6206135907,
    "radio":"Main"
  },
  {
    "name":"",
    "engine":"E14",
    "truck":"T19",
    "ambo":"A53",
    "squad":"",
    "special":"5-2-2",
    "batt":"3 (HQ)",
    "fireDist":"1",
    "emsDist":"1",
    "addr":"1129 W CHICAGO AVE",
    "city":"Chicago",
    "state":"IL",
    "zip":60642,
    "latitude":41.8959770196,
    "longitude":-87.6562246688,
    "radio":"Main"
  },
  {
    "name":"",
    "engine":"E15",
    "truck":"T59",
    "ambo":"A18",
    "squad":"",
    "special":"",
    "batt":"20 (HQ)",
    "fireDist":"5",
    "emsDist":"5",
    "addr":"8026 S KEDZIE AVE",
    "city":"Chicago",
    "state":"IL",
    "zip":60652,
    "latitude":41.7474748619,
    "longitude":-87.7023800625,
    "radio":"Englewood"
  },
  {
    "name":"",
    "engine":"E16",
    "truck":"",
    "ambo":"A35",
    "squad":"",
    "special":"4-4-12/5-1-0/5-1-1/5-1-1A/5-1-11/6-2-5",
    "batt":"2",
    "fireDist":"1",
    "emsDist":"7",
    "addr":"4005 S DEARBORN ST",
    "city":"Chicago",
    "state":"IL",
    "zip":60609,
    "latitude":41.8219009418,
    "longitude":-87.6274976924,
    "radio":"Englewood"
  },
  {
    "name":"",
    "engine":"E18",
    "truck":"",
    "ambo":"A65",
    "squad":"",
    "special":"2-2-1/6-4-16",
    "batt":"4",
    "fireDist":"1 (HQ)",
    "emsDist":"7",
    "addr":"1360 N BLUE ISLAND AVE",
    "city":"Chicago",
    "state":"IL",
    "zip":60608,
    "latitude":41.8645039791,
    "longitude":-87.6555679646,
    "radio":"Main"
  },
  {
    "name":"",
    "engine":"E19",
    "truck":"T11",
    "ambo":"A4",
    "squad":"",
    "special":"",
    "batt":"2",
    "fireDist":"1",
    "emsDist":"7",
    "addr":"3421 S CALUMET AVE",
    "city":"Chicago",
    "state":"IL",
    "zip":60616,
    "latitude":41.8322780402,
    "longitude":-87.6177966385,
    "radio":"Englewood"
  },
  {
    "name":"",
    "engine":"E22",
    "truck":"",
    "ambo":"A43",
    "squad":"",
    "special":"5-3-0/4-6-9",
    "batt":"3",
    "fireDist":"1",
    "emsDist":"1",
    "addr":"605 W ARMITAGE AVE",
    "city":"Chicago",
    "state":"IL",
    "zip":60614,
    "latitude":41.9179204771,
    "longitude":-87.6439669096,
    "radio":"Main"
  },
  {
    "name":"",
    "engine":"E23",
    "truck":"TL5",
    "ambo":"",
    "squad":"",
    "special":"6-1-2/8-8-4/4-5-7",
    "batt":"15",
    "fireDist":"4",
    "emsDist":"7 (HQ)",
    "addr":"1915 S DAMEN AVE",
    "city":"Chicago",
    "state":"IL",
    "zip":60608,
    "latitude":41.8556189584,
    "longitude":-87.6759208576,
    "radio":"Main"
  },
  {
    "name":"",
    "engine":"E26",
    "truck":"T7",
    "ambo":"A45",
    "squad":"",
    "special":"6-3-1",
    "batt":"17",
    "fireDist":"4",
    "emsDist":"1",
    "addr":"10 N LEAVITT ST",
    "city":"Chicago",
    "state":"IL",
    "zip":60612,
    "latitude":41.8815159213,
    "longitude":-87.6818553467,
    "radio":"Main"
  },
  {
    "name":"",
    "engine":"E28",
    "truck":"T8",
    "ambo":"A19",
    "squad":"",
    "special":"6-3-2/9-1-5",
    "batt":"4 (HQ)",
    "fireDist":"1",
    "emsDist":"7",
    "addr":"2534 S THROOP ST",
    "city":"Chicago",
    "state":"IL",
    "zip":60608,
    "latitude":41.8455790131,
    "longitude":-87.6563325875,
    "radio":"Englewood"
  },
  {
    "name":"",
    "engine":"E29",
    "truck":"",
    "ambo":"",
    "squad":"",
    "special":"",
    "batt":"2",
    "fireDist":"1",
    "emsDist":"7",
    "addr":"3509 S LOWE AVE",
    "city":"Chicago",
    "state":"IL",
    "zip":60609,
    "latitude":41.8307851657,
    "longitude":-87.6421322926,
    "radio":"Englewood"
  },
  {
    "name":"",
    "engine":"E30",
    "truck":"",
    "ambo":"",
    "squad":"",
    "special":"",
    "batt":"3",
    "fireDist":"1",
    "emsDist":"1",
    "addr":"1125 N ASHLAND AVE",
    "city":"Chicago",
    "state":"IL",
    "zip":60622,
    "latitude":41.9022093212,
    "longitude":-87.6670794857,
    "radio":"Main"
  },
  {
    "name":"",
    "engine":"E32",
    "truck":"T60",
    "ambo":"A12",
    "squad":"",
    "special":"",
    "batt":"16",
    "fireDist":"4",
    "emsDist":"5",
    "addr":"5559 S NARRAGANSETT AVE",
    "city":"Chicago",
    "state":"IL",
    "zip":60638,
    "latitude":41.7912356442,
    "longitude":-87.7816928857,
    "radio":"Englewood"
  },
  {
    "name":"",
    "engine":"E34",
    "truck":"TL54",
    "ambo":"A21",
    "squad":"",
    "special":"",
    "batt":"16",
    "fireDist":"4",
    "emsDist":"5",
    "addr":"4034 W 47TH ST",
    "city":"Chicago",
    "state":"IL",
    "zip":60632,
    "latitude":41.807900241,
    "longitude":-87.7248512828,
    "radio":"Englewood"
  },
  {
    "name":"",
    "engine":"E35",
    "truck":"T28",
    "ambo":"A62",
    "squad":"",
    "special":"6-6-1",
    "batt":"17",
    "fireDist":"4",
    "emsDist":"1",
    "addr":"1901 N DAMEN AVE",
    "city":"Chicago",
    "state":"IL",
    "zip":60647,
    "latitude":41.9162297517,
    "longitude":-87.6772058518,
    "radio":"Main"
  },
  {
    "name":"",
    "engine":"E38",
    "truck":"T48",
    "ambo":"",
    "squad":"",
    "special":"",
    "batt":"14",
    "fireDist":"4 (HQ)",
    "emsDist":"7",
    "addr":"3949 W 16TH ST",
    "city":"Chicago",
    "state":"IL",
    "zip":60623,
    "latitude":41.8585022706,
    "longitude":-87.7242763668,
    "radio":"Main"
  },
  {
    "name":"",
    "engine":"E39",
    "truck":"",
    "ambo":"",
    "squad":"",
    "special":"",
    "batt":"15 (HQ)",
    "fireDist":"4",
    "emsDist":"7",
    "addr":"1618 W 33RD PL",
    "city":"Chicago",
    "state":"IL",
    "zip":60608,
    "latitude":41.8334651453,
    "longitude":-87.6663510349,
    "radio":"Englewood"
  },
  {
    "name":"",
    "engine":"E42",
    "truck":"T3",
    "ambo":"A42 A93",
    "squad":"SQ1 SQ1A",
    "special":"2-7-1/4-5-1",
    "batt":"1",
    "fireDist":"1",
    "emsDist":"1 (HQ)",
    "addr":"55 W ILLINOIS ST",
    "city":"Chicago",
    "state":"IL",
    "zip":60654,
    "latitude":41.8908015111,
    "longitude":-87.6300928413,
    "radio":"Main"
  },
  {
    "name":"",
    "engine":"E43",
    "truck":"",
    "ambo":"A3",
    "squad":"",
    "special":"",
    "batt":"17",
    "fireDist":"4",
    "emsDist":"4",
    "addr":"2179 N STAVE ST",
    "city":"Chicago",
    "state":"IL",
    "zip":60647,
    "latitude":41.9209332059,
    "longitude":-87.69644235,
    "radio":"Main"
  },
  {
    "name":"",
    "engine":"E44",
    "truck":"T36",
    "ambo":"A64",
    "squad":"",
    "special":"4-4-11",
    "batt":"17",
    "fireDist":"4",
    "emsDist":"4",
    "addr":"412 N KEDZIE AVE",
    "city":"Chicago",
    "state":"IL",
    "zip":60612,
    "latitude":41.8887914366,
    "longitude":-87.7065777092,
    "radio":"Main"
  },
  {
    "name":"",
    "engine":"E45",
    "truck":"T15",
    "ambo":"A57",
    "squad":"",
    "special":"",
    "batt":"5",
    "fireDist":"1",
    "emsDist":"7",
    "addr":"4600 S COTTAGE GROVE AVE",
    "city":"Chicago",
    "state":"IL",
    "zip":60653,
    "latitude":41.8113432068,
    "longitude":-87.606625568,
    "radio":"Englewood"
  },
  {
    "name":"",
    "engine":"E46",
    "truck":"T17",
    "ambo":"A9",
    "squad":"",
    "special":"",
    "batt":"23",
    "fireDist":"5",
    "emsDist":"8",
    "addr":"3027 E 93RD ST",
    "city":"Chicago",
    "state":"IL",
    "zip":60617,
    "latitude":41.7264122408,
    "longitude":-87.5500776931,
    "radio":"Englewood"
  },
  {
    "name":"",
    "engine":"E47",
    "truck":"T30",
    "ambo":"A55",
    "squad":"",
    "special":"5-6-3",
    "batt":"19",
    "fireDist":"5",
    "emsDist":"8",
    "addr":"432 E MARQUETTE RD",
    "city":"Chicago",
    "state":"IL",
    "zip":60637,
    "latitude":41.7730001528,
    "longitude":-87.614175521,
    "radio":"Englewood"
  },
  {
    "name":"",
    "engine":"E49",
    "truck":"T33",
    "ambo":"A68",
    "squad":"",
    "special":"2-7-3/5-7-1",
    "batt":"15",
    "fireDist":"4",
    "emsDist":"7",
    "addr":"4401 S ASHLAND AVE",
    "city":"Chicago",
    "state":"IL",
    "zip":60609,
    "latitude":41.8140421859,
    "longitude":-87.664971978,
    "radio":"Englewood"
  },
  {
    "name":"",
    "engine":"E50",
    "truck":"T18",
    "ambo":"A1",
    "squad":"",
    "special":"",
    "batt":"6",
    "fireDist":"1",
    "emsDist":"5",
    "addr":"5000 S UNION AVE",
    "city":"Chicago",
    "state":"IL",
    "zip":60609,
    "latitude":41.8034478818,
    "longitude":-87.6429938641,
    "radio":"Englewood"
  },
  {
    "name":"",
    "engine":"E54",
    "truck":"T20",
    "ambo":"A14",
    "squad":"",
    "special":"",
    "batt":"19 (HQ)",
    "fireDist":"5",
    "emsDist":"8",
    "addr":"7101 S PARNELL AVE",
    "city":"Chicago",
    "state":"IL",
    "zip":60621,
    "latitude":41.765259634,
    "longitude":-87.6383054421,
    "radio":"Englewood"
  },
  {
    "name":"",
    "engine":"E55",
    "truck":"T44",
    "ambo":"",
    "squad":"",
    "special":"8-8-2",
    "batt":"12 (HQ)",
    "fireDist":"2",
    "emsDist":"2",
    "addr":"2718 N HALSTED ST",
    "city":"Chicago",
    "state":"IL",
    "zip":60614,
    "latitude":41.9317974438,
    "longitude":-87.648993616,
    "radio":"Main"
  },
  {
    "name":"",
    "engine":"E56",
    "truck":"",
    "ambo":"",
    "squad":"",
    "special":"",
    "batt":"12",
    "fireDist":"2",
    "emsDist":"4",
    "addr":"2214 W BARRY AVE",
    "city":"Chicago",
    "state":"IL",
    "zip":60618,
    "latitude":41.9376962943,
    "longitude":-87.6857657695,
    "radio":"Main"
  },
  {
    "name":"",
    "engine":"E57",
    "truck":"",
    "ambo":"A44",
    "squad":"",
    "special":"",
    "batt":"17 (HQ)",
    "fireDist":"4",
    "emsDist":"4",
    "addr":"1244 N WESTERN AVE",
    "city":"Chicago",
    "state":"IL",
    "zip":60622,
    "latitude":41.903827543,
    "longitude":-87.6871324568,
    "radio":"Main"
  },
  {
    "name":"FIREBOAT",
    "engine":"E58",
    "truck":"",
    "ambo":"",
    "squad":"",
    "special":"",
    "batt":"1",
    "fireDist":"1",
    "emsDist":"1",
    "addr":"FILTRATION PLANT (SUMMER) - NAVY PIER (WINTER)",
    "city":"Chicago",
    "state":"IL",
    "zip":60611,
    "latitude":41.893105,
    "longitude":-87.6071,
    "radio":"Main"
  },
  {
    "name":"",
    "engine":"E59 E70",
    "truck":"T47",
    "ambo":"A13",
    "squad":"",
    "special":"",
    "batt":"9 (HQ)",
    "fireDist":"2",
    "emsDist":"2",
    "addr":"6030 N CLARK ST",
    "city":"Chicago",
    "state":"IL",
    "zip":60660,
    "latitude":41.9918570584,
    "longitude":-87.670233823,
    "radio":"Main"
  },
  {
    "name":"",
    "engine":"E60",
    "truck":"TL37",
    "ambo":"A38",
    "squad":"",
    "special":"",
    "batt":"5 (HQ)",
    "fireDist":"1",
    "emsDist":"8",
    "addr":"1150 E 55TH ST",
    "city":"Chicago",
    "state":"IL",
    "zip":60615,
    "latitude":41.7951519758,
    "longitude":-87.5975189266,
    "radio":"Englewood"
  },
  {
    "name":"",
    "engine":"E62",
    "truck":"T27",
    "ambo":"",
    "squad":"",
    "special":"",
    "batt":"22 (HQ)",
    "fireDist":"5",
    "emsDist":"6",
    "addr":"34 E 114TH ST",
    "city":"Chicago",
    "state":"IL",
    "zip":60628,
    "latitude":41.6874062545,
    "longitude":-87.6241368588,
    "radio":"Englewood"
  },
  {
    "name":"",
    "engine":"E63",
    "truck":"T16",
    "ambo":"A70",
    "squad":"",
    "special":"4-5-8/4-6-8",
    "batt":"19",
    "fireDist":"5",
    "emsDist":"8 (HQ)",
    "addr":"1440 E 67TH ST",
    "city":"Chicago",
    "state":"IL",
    "zip":60637,
    "latitude":41.7733065442,
    "longitude":-87.5902020047,
    "radio":"Englewood"
  },
  {
    "name":"",
    "engine":"E64",
    "truck":"T31",
    "ambo":"A27",
    "squad":"",
    "special":"",
    "batt":"20",
    "fireDist":"5",
    "emsDist":"5",
    "addr":"7659 S PULASKI RD",
    "city":"Chicago",
    "state":"IL",
    "zip":60652,
    "latitude":41.7530060897,
    "longitude":-87.721921549,
    "radio":"Englewood"
  },
  {
    "name":"",
    "engine":"E65",
    "truck":"T52",
    "ambo":"A69",
    "squad":"",
    "special":"",
    "batt":"15",
    "fireDist":"4",
    "emsDist":"7",
    "addr":"3002 W 42ND ST",
    "city":"Chicago",
    "state":"IL",
    "zip":60632,
    "latitude":41.8172974389,
    "longitude":-87.6995040066,
    "radio":"Englewood"
  },
  {
    "name":"",
    "engine":"E68",
    "truck":"",
    "ambo":"A63",
    "squad":"",
    "special":"",
    "batt":"8",
    "fireDist":"2",
    "emsDist":"4",
    "addr":"5258 W GRAND AVE",
    "city":"Chicago",
    "state":"IL",
    "zip":60639,
    "latitude":41.9172508626,
    "longitude":-87.7574732107,
    "radio":"Main"
  },
  {
    "name":"",
    "engine":"E69",
    "truck":"",
    "ambo":"",
    "squad":"",
    "special":"",
    "batt":"10",
    "fireDist":"2",
    "emsDist":"2",
    "addr":"4017 N TRIPP AVE",
    "city":"Chicago",
    "state":"IL",
    "zip":60641,
    "latitude":41.9537862511,
    "longitude":-87.7339286805,
    "radio":"Main"
  },
  {
    "name":"",
    "engine":"E71",
    "truck":"",
    "ambo":"",
    "squad":"",
    "special":"",
    "batt":"9",
    "fireDist":"2",
    "emsDist":"2",
    "addr":"6239 N CALIFORNIA AVE",
    "city":"Chicago",
    "state":"IL",
    "zip":60659,
    "latitude":41.9951465147,
    "longitude":-87.6995300113,
    "radio":"Main"
  },
  {
    "name":"",
    "engine":"E72",
    "truck":"TL34",
    "ambo":"A22",
    "squad":"",
    "special":"",
    "batt":"23 (HQ)",
    "fireDist":"5",
    "emsDist":"8",
    "addr":"7974 S SOUTH CHICAGO AVE",
    "city":"Chicago",
    "state":"IL",
    "zip":60617,
    "latitude":41.7498279557,
    "longitude":-87.5834116259,
    "radio":"Englewood"
  },
  {
    "name":"",
    "engine":"E73",
    "truck":"",
    "ambo":"",
    "squad":"",
    "special":"",
    "batt":"21",
    "fireDist":"5",
    "emsDist":"6",
    "addr":"8630 S EMERALD AVE",
    "city":"Chicago",
    "state":"IL",
    "zip":60620,
    "latitude":41.7369357739,
    "longitude":-87.642455328,
    "radio":"Englewood"
  },
  {
    "name":"",
    "engine":"E74",
    "truck":"",
    "ambo":"",
    "squad":"",
    "special":"",
    "batt":"24",
    "fireDist":"5",
    "emsDist":"6",
    "addr":"10615 S EWING AVE",
    "city":"Chicago",
    "state":"IL",
    "zip":60617,
    "latitude":41.7021876031,
    "longitude":-87.5352290633,
    "radio":"Englewood"
  },
  {
    "name":"",
    "engine":"E75",
    "truck":"",
    "ambo":"A5",
    "squad":"",
    "special":"",
    "batt":"22",
    "fireDist":"5",
    "emsDist":"6",
    "addr":"11958 S STATE ST",
    "city":"Chicago",
    "state":"IL",
    "zip":60628,
    "latitude":41.6767302679,
    "longitude":-87.6226593998,
    "radio":"Englewood"
  },
  {
    "name":"",
    "engine":"E76",
    "truck":"T35",
    "ambo":"A52",
    "squad":"",
    "special":"5-7-2",
    "batt":"7",
    "fireDist":"2",
    "emsDist":"4",
    "addr":"1747 N PULASKI RD",
    "city":"Chicago",
    "state":"IL",
    "zip":60639,
    "latitude":41.9126182178,
    "longitude":-87.7263811325,
    "radio":"Main"
  },
  {
    "name":"",
    "engine":"E78",
    "truck":"",
    "ambo":"A6",
    "squad":"",
    "special":"",
    "batt":"12",
    "fireDist":"2",
    "emsDist":"2",
    "addr":"1052 W WAVELAND AVE",
    "city":"Chicago",
    "state":"IL",
    "zip":60613,
    "latitude":41.9492078905,
    "longitude":-87.6564045332,
    "radio":"Main"
  },
  {
    "name":"",
    "engine":"E79",
    "truck":"",
    "ambo":"A73",
    "squad":"",
    "special":"4-5-3",
    "batt":"11",
    "fireDist":"2",
    "emsDist":"3 (HQ)",
    "addr":"6424 N LEHIGH AVE",
    "city":"Chicago",
    "state":"IL",
    "zip":60646,
    "latitude":41.997974799,
    "longitude":-87.7661615936,
    "radio":"Main"
  },
  {
    "name":"",
    "engine":"E80",
    "truck":"T62",
    "ambo":"A51",
    "squad":"",
    "special":"4-0-2",
    "batt":"22",
    "fireDist":"5",
    "emsDist":"6",
    "addr":"12701 S DOTY AVE",
    "city":"Chicago",
    "state":"IL",
    "zip":60633,
    "latitude":41.6626001062,
    "longitude":-87.5905974669,
    "radio":"Englewood"
  },
  {
    "name":"",
    "engine":"E81",
    "truck":"",
    "ambo":"A71",
    "squad":"",
    "special":"2-2-6/6-1-1",
    "batt":"24",
    "fireDist":"5 (HQ)",
    "emsDist":"6",
    "addr":"10458 S HOXIE AVE",
    "city":"Chicago",
    "state":"IL",
    "zip":60617,
    "latitude":41.7053343197,
    "longitude":-87.5608852482,
    "radio":"Englewood"
  },
  {
    "name":"",
    "engine":"E82",
    "truck":"T42",
    "ambo":"A37",
    "squad":"",
    "special":"",
    "batt":"23",
    "fireDist":"5",
    "emsDist":"8",
    "addr":"817 E 91ST ST",
    "city":"Chicago",
    "state":"IL",
    "zip":60619,
    "latitude":41.7293332796,
    "longitude":-87.6042573015,
    "radio":"Englewood"
  },
  {
    "name":"",
    "engine":"E83",
    "truck":"T22",
    "ambo":"A31",
    "squad":"",
    "special":"9-1-3",
    "batt":"9",
    "fireDist":"2",
    "emsDist":"2",
    "addr":"1200 W WILSON AVE",
    "city":"Chicago",
    "state":"IL",
    "zip":60640,
    "latitude":41.965638504,
    "longitude":-87.6599748417,
    "radio":"Main"
  },
  {
    "name":"",
    "engine":"E84",
    "truck":"T51",
    "ambo":"A36",
    "squad":"",
    "special":"2-2-5/8-8-12/4-6-6",
    "batt":"5",
    "fireDist":"1",
    "emsDist":"8",
    "addr":"21 W 59TH ST",
    "city":"Chicago",
    "state":"IL",
    "zip":60621,
    "latitude":41.7868982506,
    "longitude":-87.6264211368,
    "radio":"Englewood"
  },
  {
    "name":"",
    "engine":"E86",
    "truck":"T57",
    "ambo":"A20",
    "squad":"",
    "special":"",
    "batt":"8",
    "fireDist":"2",
    "emsDist":"3",
    "addr":"3918 N HARLEM AVE",
    "city":"Chicago",
    "state":"IL",
    "zip":60634,
    "latitude":41.9511425117,
    "longitude":-87.8072193406,
    "radio":"Main"
  },
  {
    "name":"",
    "engine":"E88",
    "truck":"",
    "ambo":"",
    "squad":"",
    "special":"4-0-6/4-5-5",
    "batt":"16",
    "fireDist":"4",
    "emsDist":"5 (HQ)",
    "addr":"3637 W 59TH ST",
    "city":"Chicago",
    "state":"IL",
    "zip":60629,
    "latitude":41.7857021523,
    "longitude":-87.7146895939,
    "radio":"Englewood"
  },
  {
    "name":"",
    "engine":"E89",
    "truck":"T56",
    "ambo":"A46",
    "squad":"",
    "special":"",
    "batt":"10",
    "fireDist":"2",
    "emsDist":"2",
    "addr":"3945 W PETERSON AVE",
    "city":"Chicago",
    "state":"IL",
    "zip":60659,
    "latitude":41.9900566588,
    "longitude":-87.7256803037,
    "radio":"Main"
  },
  {
    "name":"",
    "engine":"E91",
    "truck":"",
    "ambo":"",
    "squad":"SQ2 SQ2A",
    "special":"5-2-6",
    "batt":"7 (HQ)",
    "fireDist":"2",
    "emsDist":"2",
    "addr":"2827 N PULASKI RD",
    "city":"Chicago",
    "state":"IL",
    "zip":60641,
    "latitude":41.9322367559,
    "longitude":-87.726957114,
    "radio":"Main"
  },
  {
    "name":"",
    "engine":"E92",
    "truck":"T45",
    "ambo":"A17",
    "squad":"",
    "special":"",
    "batt":"21",
    "fireDist":"5",
    "emsDist":"6",
    "addr":"3112 W 111TH ST",
    "city":"Chicago",
    "state":"IL",
    "zip":60655,
    "latitude":41.6916111688,
    "longitude":-87.6989186502,
    "radio":"Englewood"
  },
  {
    "name":"",
    "engine":"E93",
    "truck":"",
    "ambo":"A60",
    "squad":"",
    "special":"",
    "batt":"22",
    "fireDist":"5",
    "emsDist":"6",
    "addr":"330 W 104TH ST",
    "city":"Chicago",
    "state":"IL",
    "zip":60628,
    "latitude":41.7052439476,
    "longitude":-87.6324331863,
    "radio":"Englewood"
  },
  {
    "name":"",
    "engine":"E94",
    "truck":"",
    "ambo":"",
    "squad":"",
    "special":"",
    "batt":"8",
    "fireDist":"2",
    "emsDist":"3",
    "addr":"5758 W GRACE ST",
    "city":"Chicago",
    "state":"IL",
    "zip":60634,
    "latitude":41.9494483113,
    "longitude":-87.7706938562,
    "radio":"Main"
  },
  {
    "name":"",
    "engine":"E95",
    "truck":"T26",
    "ambo":"A10",
    "squad":"",
    "special":"",
    "batt":"18 (HQ)",
    "fireDist":"4",
    "emsDist":"4",
    "addr":"4003 W WEST END AVE",
    "city":"Chicago",
    "state":"IL",
    "zip":60624,
    "latitude":41.8833438255,
    "longitude":-87.725764105,
    "radio":"Main"
  },
  {
    "name":"",
    "engine":"E96",
    "truck":"T29",
    "ambo":"",
    "squad":"",
    "special":"",
    "batt":"18",
    "fireDist":"4",
    "emsDist":"4",
    "addr":"439 N WALLER AVE",
    "city":"Chicago",
    "state":"IL",
    "zip":60644,
    "latitude":41.8883243042,
    "longitude":-87.7676163382,
    "radio":"Main"
  },
  {
    "name":"",
    "engine":"E97",
    "truck":"",
    "ambo":"",
    "squad":"",
    "special":"",
    "batt":"24",
    "fireDist":"5",
    "emsDist":"6",
    "addr":"13359 S BURLEY AVE",
    "city":"Chicago",
    "state":"IL",
    "zip":60633,
    "latitude":41.6525911526,
    "longitude":-87.5447043766,
    "radio":"Englewood"
  },
  {
    "name":"",
    "engine":"E98",
    "truck":"",
    "ambo":"A11",
    "squad":"",
    "special":"",
    "batt":"1",
    "fireDist":"1",
    "emsDist":"1",
    "addr":"202 E CHICAGO AVE",
    "city":"Chicago",
    "state":"IL",
    "zip":60611,
    "latitude":41.8970651992,
    "longitude":-87.6225990181,
    "radio":"Main"
  },
  {
    "name":"",
    "engine":"E99",
    "truck":"",
    "ambo":"A67",
    "squad":"",
    "special":"",
    "batt":"14",
    "fireDist":"4",
    "emsDist":"7",
    "addr":"3042 S KEDVALE AVE",
    "city":"Chicago",
    "state":"IL",
    "zip":60623,
    "latitude":41.8373861984,
    "longitude":-87.7280608365,
    "radio":"Main"
  },
  {
    "name":"",
    "engine":"E101",
    "truck":"T41",
    "ambo":"A58 A75",
    "squad":"",
    "special":"",
    "batt":"20",
    "fireDist":"5",
    "emsDist":"5",
    "addr":"2240 W 69TH ST",
    "city":"Chicago",
    "state":"IL",
    "zip":60636,
    "latitude":41.7683940814,
    "longitude":-87.6798516441,
    "radio":"Englewood"
  },
  {
    "name":"",
    "engine":"E102",
    "truck":"T25",
    "ambo":"A56",
    "squad":"",
    "special":"",
    "batt":"9",
    "fireDist":"2",
    "emsDist":"2",
    "addr":"7340 N CLARK ST",
    "city":"Chicago",
    "state":"IL",
    "zip":60626,
    "latitude":42.0146401607,
    "longitude":-87.6750236109,
    "radio":"Main"
  },
  {
    "name":"",
    "engine":"E103",
    "truck":"",
    "ambo":"",
    "squad":"",
    "special":"",
    "batt":"4",
    "fireDist":"1",
    "emsDist":"1",
    "addr":"25 S LAFLIN ST",
    "city":"Chicago",
    "state":"IL",
    "zip":60607,
    "latitude":41.8807155247,
    "longitude":-87.6641207162,
    "radio":"Main"
  },
  {
    "name":"",
    "engine":"E104",
    "truck":"T61",
    "ambo":"A25",
    "squad":"",
    "special":"6-7-6/6-8-10",
    "batt":"24 (HQ)",
    "fireDist":"5",
    "emsDist":"6",
    "addr":"11641 S AVENUE O",
    "city":"Chicago",
    "state":"IL",
    "zip":60617,
    "latitude":41.6838483857,
    "longitude":-87.5400210565,
    "radio":"Englewood"
  },
  {
    "name":"",
    "engine":"E106",
    "truck":"T13",
    "ambo":"A48",
    "squad":"",
    "special":"4-0-1/9-2-3",
    "batt":"7",
    "fireDist":"2",
    "emsDist":"2",
    "addr":"3401 N ELSTON AVE",
    "city":"Chicago",
    "state":"IL",
    "zip":60618,
    "latitude":41.943065521,
    "longitude":-87.7032142449,
    "radio":"Main"
  },
  {
    "name":"",
    "engine":"E107",
    "truck":"",
    "ambo":"A33",
    "squad":"",
    "special":"8-8-11/4-6-7",
    "batt":"14",
    "fireDist":"4",
    "emsDist":"4",
    "addr":"1101 S CALIFORNIA AVE",
    "city":"Chicago",
    "state":"IL",
    "zip":60612,
    "latitude":41.8681070299,
    "longitude":-87.6956239669,
    "radio":"Main"
  },
  {
    "name":"",
    "engine":"E108",
    "truck":"TL23",
    "ambo":"A47",
    "squad":"",
    "special":"2-2-2/6-7-3",
    "batt":"11",
    "fireDist":"2 (HQ)",
    "emsDist":"3",
    "addr":"4625 N MILWAUKEE AVE",
    "city":"Chicago",
    "state":"IL",
    "zip":60630,
    "latitude":41.9646504206,
    "longitude":-87.75785762,
    "radio":"Main"
  },
  {
    "name":"",
    "engine":"E109",
    "truck":"T32",
    "ambo":"A34",
    "squad":"",
    "special":"9-2-1",
    "batt":"14 (HQ)",
    "fireDist":"4",
    "emsDist":"7",
    "addr":"2358 S WHIPPLE ST",
    "city":"Chicago",
    "state":"IL",
    "zip":60623,
    "latitude":41.8483399317,
    "longitude":-87.7018113025,
    "radio":"Main"
  },
  {
    "name":"",
    "engine":"E110",
    "truck":"T12",
    "ambo":"A40",
    "squad":"",
    "special":"",
    "batt":"10",
    "fireDist":"2",
    "emsDist":"2",
    "addr":"2322 W FOSTER AVE",
    "city":"Chicago",
    "state":"IL",
    "zip":60625,
    "latitude":41.9759393492,
    "longitude":-87.6875836048,
    "radio":"Main"
  },
  {
    "name":"",
    "engine":"E112",
    "truck":"TL21",
    "ambo":"A61",
    "squad":"",
    "special":"2-7-2/4-0-7/4-5-2",
    "batt":"12",
    "fireDist":"2",
    "emsDist":"2 (HQ)",
    "addr":"3801 N DAMEN AVE",
    "city":"Chicago",
    "state":"IL",
    "zip":60618,
    "latitude":41.9507547244,
    "longitude":-87.6783030246,
    "radio":"Main"
  },
  {
    "name":"",
    "engine":"E113",
    "truck":"",
    "ambo":"A23",
    "squad":"",
    "special":"",
    "batt":"18",
    "fireDist":"4",
    "emsDist":"4",
    "addr":"5212 W HARRISON ST",
    "city":"Chicago",
    "state":"IL",
    "zip":60644,
    "latitude":41.8729826563,
    "longitude":-87.7550687815,
    "radio":"Main"
  },
  {
    "name":"",
    "engine":"E115",
    "truck":"",
    "ambo":"",
    "squad":"",
    "special":"",
    "batt":"22",
    "fireDist":"5",
    "emsDist":"6",
    "addr":"11940 S PEORIA ST",
    "city":"Chicago",
    "state":"IL",
    "zip":60643,
    "latitude":41.6767675201,
    "longitude":-87.6443638638,
    "radio":"Englewood"
  },
  {
    "name":"",
    "engine":"E116",
    "truck":"",
    "ambo":"A49",
    "squad":"SQ5 SQ5A",
    "special":"9-2-2",
    "batt":"6",
    "fireDist":"1",
    "emsDist":"5",
    "addr":"5955 S ASHLAND AVE",
    "city":"Chicago",
    "state":"IL",
    "zip":60636,
    "latitude":41.7856913683,
    "longitude":-87.6642623367,
    "radio":"Englewood"
  },
  {
    "name":"",
    "engine":"E117",
    "truck":"TL14",
    "ambo":"A15",
    "squad":"",
    "special":"4-5-4",
    "batt":"18",
    "fireDist":"4",
    "emsDist":"4 (HQ)",
    "addr":"4900 W CHICAGO AVE",
    "city":"Chicago",
    "state":"IL",
    "zip":60651,
    "latitude":41.8950366096,
    "longitude":-87.7482770703,
    "radio":"Main"
  },
  {
    "name":"",
    "engine":"E119",
    "truck":"T55",
    "ambo":"A39",
    "squad":"",
    "special":"",
    "batt":"11 (HQ)",
    "fireDist":"2",
    "emsDist":"3",
    "addr":"6030 N AVONDALE AVE",
    "city":"Chicago",
    "state":"IL",
    "zip":60631,
    "latitude":41.9912065636,
    "longitude":-87.7987948346,
    "radio":"Main"
  },
  {
    "name":"",
    "engine":"E120",
    "truck":"",
    "ambo":"A72",
    "squad":"",
    "special":"",
    "batt":"21",
    "fireDist":"5",
    "emsDist":"6",
    "addr":"11035 S HOMEWOOD AVE",
    "city":"Chicago",
    "state":"IL",
    "zip":60643,
    "latitude":41.6932057754,
    "longitude":-87.6688253805,
    "radio":"Englewood"
  },
  {
    "name":"",
    "engine":"E121",
    "truck":"T40",
    "ambo":"",
    "squad":"",
    "special":"4-5-6/8-8-3",
    "batt":"21 (HQ)",
    "fireDist":"5",
    "emsDist":"6 (HQ)",
    "addr":"1724 W 95TH ST",
    "city":"Chicago",
    "state":"IL",
    "zip":60643,
    "latitude":41.7212468381,
    "longitude":-87.6657632867,
    "radio":"Englewood"
  },
  {
    "name":"",
    "engine":"E122",
    "truck":"",
    "ambo":"A24",
    "squad":"",
    "special":"2-7-4/4-0-9",
    "batt":"19",
    "fireDist":"5",
    "emsDist":"8",
    "addr":"101 E 79TH ST",
    "city":"Chicago",
    "state":"IL",
    "zip":60619,
    "latitude":41.7509831597,
    "longitude":-87.6213520539,
    "radio":"Englewood"
  },
  {
    "name":"",
    "engine":"E123",
    "truck":"TL39",
    "ambo":"A8",
    "squad":"",
    "special":"",
    "batt":"6 (HQ)",
    "fireDist":"1",
    "emsDist":"5",
    "addr":"2215 W 51ST ST",
    "city":"Chicago",
    "state":"IL",
    "zip":60609,
    "latitude":41.8011704834,
    "longitude":-87.6798621855,
    "radio":"Englewood"
  },
  {
    "name":"",
    "engine":"E124",
    "truck":"T38",
    "ambo":"A32",
    "squad":"",
    "special":"5-6-2",
    "batt":"10 (HQ)",
    "fireDist":"2",
    "emsDist":"2",
    "addr":"4426 N KEDZIE AVE",
    "city":"Chicago",
    "state":"IL",
    "zip":60625,
    "latitude":41.9616906709,
    "longitude":-87.7082930625,
    "radio":"Main"
  },
  {
    "name":"",
    "engine":"E125",
    "truck":"T53",
    "ambo":"",
    "squad":"",
    "special":"",
    "batt":"8 (HQ)",
    "fireDist":"2",
    "emsDist":"4",
    "addr":"2323 N NATCHEZ AVE",
    "city":"Chicago",
    "state":"IL",
    "zip":60707,
    "latitude":41.9220852538,
    "longitude":-87.7877541442,
    "radio":"Main"
  },
  {
    "name":"",
    "engine":"E126",
    "truck":"T49",
    "ambo":"A50",
    "squad":"",
    "special":"",
    "batt":"23",
    "fireDist":"5",
    "emsDist":"8",
    "addr":"7313 S KINGSTON AVE",
    "city":"Chicago",
    "state":"IL",
    "zip":60649,
    "latitude":41.7623966314,
    "longitude":-87.5639356162,
    "radio":"Englewood"
  },
  {
    "name":"",
    "engine":"E127",
    "truck":"",
    "ambo":"A54",
    "squad":"",
    "special":"6-3-4/6-3-7/6-5-1/6-5-2/8-8-6",
    "batt":"16 (HQ)",
    "fireDist":"4",
    "emsDist":"5",
    "addr":"5200 W 63RD ST",
    "city":"Chicago",
    "state":"IL",
    "zip":60638,
    "latitude":41.7775093287,
    "longitude":-87.7519754853,
    "radio":"Englewood"
  },
  {
    "name":"",
    "engine":"E129",
    "truck":"T50",
    "ambo":"A30",
    "squad":"",
    "special":"",
    "batt":"20",
    "fireDist":"5",
    "emsDist":"6",
    "addr":"8120 S ASHLAND AVE",
    "city":"Chicago",
    "state":"IL",
    "zip":60620,
    "latitude":41.7463046112,
    "longitude":-87.6634615253,
    "radio":"Englewood"
  },
  {
    "name":"",
    "engine":"",
    "truck":"T24",
    "ambo":"A29",
    "squad":"",
    "special":"",
    "batt":"21",
    "fireDist":"5",
    "emsDist":"6",
    "addr":"10400 S VINCENNES",
    "city":"Chicago",
    "state":"IL",
    "zip":60643,
    "latitude":41.704828,
    "longitude":-87.65687,
    "radio":"Englewood"
  },
  {
    "name":"AIR SEA RESCUE HELIPORT",
    "engine":"",
    "truck":"",
    "ambo":"",
    "squad":"",
    "special":"6-8-1/6-8-2",
    "batt":"",
    "fireDist":"",
    "emsDist":"",
    "addr":"3954 E FOREMAN DR",
    "city":"Chicago",
    "state":"IL",
    "zip":60617,
    "latitude":41.724536,
    "longitude":-87.526851,
    "radio":"Englewood"
  },
  {
    "name":"SPECIAL OPERATIONS",
    "engine":"",
    "truck":"",
    "ambo":"",
    "squad":"",
    "special":"2-7-9/5-2-3/5-2-4/5-2-5/5-6-4/5-6-5/5-6-6/5-6-7/6-3-9/6-8-9/7-7-5",
    "batt":"",
    "fireDist":"",
    "emsDist":"",
    "addr":"3918 S HONORE",
    "city":"Chicago",
    "state":"IL",
    "zip":60609,
    "latitude":41.821915,
    "longitude":-87.67147,
    "radio":"Englewood"
  },
  {
    "name":"HEADQUARTERS",
    "engine":"",
    "truck":"",
    "ambo":"",
    "squad":"",
    "special":"2-1-3",
    "batt":"",
    "fireDist":"",
    "emsDist":"",
    "addr":"3510 S MICHIGAN",
    "city":"Chicago",
    "state":"IL",
    "zip":60653,
    "latitude":41.830459,
    "longitude":-87.623744,
    "radio":"Englewood"
  },
  {
    "name":"WAREHOUSE",
    "engine":"",
    "truck":"",
    "ambo":"",
    "squad":"",
    "special":"6-8-7A",
    "batt":"",
    "fireDist":"",
    "emsDist":"",
    "addr":"1201 S CAMPBELL",
    "city":"Chicago",
    "state":"IL",
    "zip":60608,
    "latitude":41.866368,
    "longitude":-87.688915,
    "radio":"Main"
  },
  {
    "name":"QUINN FIRE ACADEMY",
    "engine":"",
    "truck":"",
    "ambo":"",
    "squad":"",
    "special":"",
    "batt":"",
    "fireDist":"",
    "emsDist":"",
    "addr":"558 W DE KOVEN",
    "city":"Chicago",
    "state":"IL",
    "zip":60607,
    "latitude":41.869531,
    "longitude":-87.64151,
    "radio":"Main"
  },
  {
    "name":"FIRE ALARM OFFICE",
    "engine":"",
    "truck":"",
    "ambo":"",
    "squad":"",
    "special":"",
    "batt":"",
    "fireDist":"",
    "emsDist":"",
    "addr":"1411 W MADISON",
    "city":"Chicago",
    "state":"IL",
    "zip":60607,
    "latitude":41.881354,
    "longitude":-87.662937,
    "radio":"Main"
  },
  {
    "name":"O'HARE RESCUE 4",
    "engine":"",
    "truck":"",
    "ambo":"",
    "squad":"",
    "special":"R4/6-5-9",
    "batt":"13 (HQ)",
    "fireDist":"3",
    "emsDist":"3",
    "addr":"",
    "city":"Chicago",
    "state":"IL",
    "zip":60666,
    "latitude":42.000729,
    "longitude":-87.918313,
    "radio":"Main"
  }
]
